{"meta":{"code":200,"errorType":"deprecated","errorDetail":"This endpoint will stop returning groups in the future. Please use a current version, see http:\/\/bit.ly\/vywCav."},"response":{"groups":[{"type":"places","name":"Places","items":[{"id":"40f86c00f964a520bd0a1fe3","name":"Disneyland","contact":{"phone":"7147814565","formattedPhone":"(714) 781-4565","twitter":"Disneyland"},"location":{"address":"1313 S Harbor Blvd","crossStreet":"at Disneyland Resort","lat":33.81092400167195,"lng":-117.91943550109863,"distance":606,"postalCode":"92802","city":"Anaheim","state":"CA","country":"USA"},"categories":[{"id":"4bf58dd8d48988d182941735","name":"Theme Park","pluralName":"Theme Parks","shortName":"Theme Park","icon":"https:\/\/foursquare.com\/img\/categories\/arts_entertainment\/themepark.png","parents":["Arts & Entertainment"],"primary":true}],"verified":false,"stats":{"checkinsCount":153396,"usersCount":54908,"tipCount":607},"url":"http:\/\/disneyland.com","hereNow":{"count":39}},{"id":"4ae286cbf964a520de8e21e3","name":"Howard Johnson Plaza Hotel & Water Playground @ Disneyland","contact":{"phone":"7147766120","formattedPhone":"(714) 776-6120","twitter":"hojoanaheim"},"location":{"address":"1380 S Harbor Blvd","crossStreet":"at Manchester Ave.","lat":33.81315701921813,"lng":-117.91422665119171,"distance":231,"postalCode":"92802","city":"Anaheim","state":"CA","country":"USA"},"categories":[{"id":"4bf58dd8d48988d1fa931735","name":"Hotel","pluralName":"Hotels","shortName":"Hotel","icon":"https:\/\/foursquare.com\/img\/categories\/travel\/hotel.png","parents":["Travel & Transport"],"primary":true}],"verified":true,"stats":{"checkinsCount":808,"usersCount":312,"tipCount":16},"url":"http:\/\/www.hojoanaheim.com","hereNow":{"count":0}},{"id":"4ee251b3f9ab478e5955ed93","name":"Disneyland Smoking Section","contact":{},"location":{"lat":33.8134765625,"lng":-117.91738891601562,"distance":270,"postalCode":"92802"},"categories":[{"id":"4bf58dd8d48988d1f1931735","name":"General Entertainment","pluralName":"General Entertainment","shortName":"Other - Entertainment","icon":"https:\/\/foursquare.com\/img\/categories\/arts_entertainment\/default.png","parents":["Arts & Entertainment"],"primary":true}],"verified":false,"stats":{"checkinsCount":9,"usersCount":9,"tipCount":0},"hereNow":{"count":0}},{"id":"4ac95372f964a520abbf20e3","name":"Disneyland Monorail Tomorrowland Station","contact":{"twitter":"Disneyland"},"location":{"address":"Tomorrowland","crossStreet":"at Disneyland","lat":33.81283165302376,"lng":-117.91662454605103,"distance":283,"postalCode":"92802","city":"Anaheim","state":"CA"},"categories":[{"id":"4bf58dd8d48988d1fc931735","name":"Light Rail","pluralName":"Light Rails","shortName":"Light Rail","icon":"https:\/\/foursquare.com\/img\/categories\/travel\/lightrail.png","parents":["Travel & Transport"],"primary":true}],"verified":false,"stats":{"checkinsCount":3564,"usersCount":2412,"tipCount":20},"url":"http:\/\/disneyland.com","hereNow":{"count":1}},{"id":"4ac95996f964a520babf20e3","name":"Disneyland Railroad Tomorrowland Station","contact":{"twitter":"Disneyland"},"location":{"address":"Tomorrowland","crossStreet":"at Disneyland","lat":33.812455028965815,"lng":-117.91587889194489,"distance":299,"postalCode":"92802","city":"Anaheim","state":"CA"},"categories":[{"id":"4bf58dd8d48988d129951735","name":"Train Station","pluralName":"Train Stations","shortName":"Train Station","icon":"https:\/\/foursquare.com\/img\/categories\/travel\/trainstation.png","parents":["Travel & Transport"],"primary":true}],"verified":false,"stats":{"checkinsCount":2327,"usersCount":1719,"tipCount":8},"hereNow":{"count":0}},{"id":"4ac95d04f964a520c6bf20e3","name":"Disneyland Railroad Toontown Station","contact":{"twitter":"Disneyland"},"location":{"address":"Mickey's Toontown","crossStreet":"at Disneyland","lat":33.81483508685791,"lng":-117.91866570711136,"distance":322,"postalCode":"92802","city":"Anaheim","state":"CA"},"categories":[{"id":"4bf58dd8d48988d129951735","name":"Train Station","pluralName":"Train Stations","shortName":"Train Station","icon":"https:\/\/foursquare.com\/img\/categories\/travel\/trainstation.png","parents":["Travel & Transport"],"primary":true}],"verified":false,"stats":{"checkinsCount":2894,"usersCount":2101,"tipCount":12},"hereNow":{"count":1}},{"id":"4bda24c8c79cc92845bc7de9","name":"Disneyland Resort Payroll Office","contact":{},"location":{"address":"700 W Ball Rd.","crossStreet":"Team Disney Anaheim - 1st Floor","lat":33.81687858559877,"lng":-117.91814804077148,"distance":339,"postalCode":"92802","city":"Anaheim","state":"CA"},"categories":[{"id":"4bf58dd8d48988d174941735","name":"Coworking Space","pluralName":"Coworking Spaces","shortName":"Coworking Space","icon":"https:\/\/foursquare.com\/img\/categories\/building\/default.png","parents":["Professional & Other Places","Offices"],"primary":true}],"verified":false,"stats":{"checkinsCount":390,"usersCount":28,"tipCount":1},"hereNow":{"count":0}},{"id":"4c950e24efecb7134ba9e29d","name":"Disneyland Resort Casting","contact":{"phone":"7147811600","formattedPhone":"(714) 781-1600","twitter":"disneyland"},"location":{"address":"700 W. Ball Rd.","crossStreet":"Team Disney Anaheim - 1st Floor","lat":33.81761842261471,"lng":-117.91856110095978,"distance":420,"postalCode":"92802","city":"Anaheim","state":"CA"},"categories":[{"id":"4bf58dd8d48988d124941735","name":"Office","pluralName":"Offices","shortName":"Corporate \/ Office","icon":"https:\/\/foursquare.com\/img\/categories\/building\/default.png","parents":["Professional & Other Places"],"primary":true}],"verified":false,"stats":{"checkinsCount":188,"usersCount":94,"tipCount":0},"url":"http:\/\/disneyparks.jobs","hereNow":{"count":0}},{"id":"4e138bc181dc308b5c65fb3f","name":"Disneyland Embroidery","contact":{},"location":{"address":"1313 S Harbor Blvd","crossStreet":"Showcase Annex @ Main Street USA","lat":33.81353269516776,"lng":-117.92062938696382,"distance":531,"city":"Anaheim","state":"CA"},"categories":[],"verified":false,"stats":{"checkinsCount":3,"usersCount":3,"tipCount":0},"hereNow":{"count":0}},{"id":"4ef34248991151406d6b0935","name":"Disneyland Custodial Central","contact":{},"location":{"lat":33.81074870833006,"lng":-117.91812922745663,"distance":553,"postalCode":"92802","city":"Anaheim","state":"CA"},"categories":[{"id":"4bf58dd8d48988d174941735","name":"Coworking Space","pluralName":"Coworking Spaces","shortName":"Coworking Space","icon":"https:\/\/foursquare.com\/img\/categories\/building\/default.png","parents":["Professional & Other Places","Offices"],"primary":true}],"verified":false,"stats":{"checkinsCount":11,"usersCount":3,"tipCount":0},"hereNow":{"count":0}},{"id":"4edd613477c8274e00b37ab7","name":"Crossfit Disneyland","contact":{},"location":{"lat":33.81172298910691,"lng":-117.91916731455821,"distance":524,"postalCode":"92802","city":"Anaheim","state":"CA"},"categories":[{"id":"4bf58dd8d48988d176941735","name":"Gym","pluralName":"Gyms","shortName":"Gym","icon":"https:\/\/foursquare.com\/img\/categories\/building\/gym.png","parents":["Shops & Services","Gyms or Fitness Centers"],"primary":true}],"verified":false,"stats":{"checkinsCount":3,"usersCount":2,"tipCount":0},"hereNow":{"count":0}},{"id":"4b4766aff964a520f33026e3","name":"The Disneyland Story presenting Great Moments with Mr. Lincoln","contact":{"twitter":"Disneyland"},"location":{"address":"Main Street Opera House, Main Street, U.S.A.","crossStreet":"at Disneyland","lat":33.810291079909774,"lng":-117.91851282119751,"distance":615,"postalCode":"92802","city":"Anaheim","state":"CA","country":"USA"},"categories":[{"id":"4bf58dd8d48988d137941735","name":"Theater","pluralName":"Theaters","shortName":"Theater","icon":"https:\/\/foursquare.com\/img\/categories\/arts_entertainment\/default.png","parents":["Arts & Entertainment","Performing Arts Venues"],"primary":true}],"verified":false,"stats":{"checkinsCount":1620,"usersCount":1168,"tipCount":16},"hereNow":{"count":0}},{"id":"4bfefd7888e7952190e27d8f","name":"Disneyland Entertainment Satellite Office","contact":{},"location":{"address":"1313 S. Harbor Blvd.","crossStreet":"Backstage @ Disneyland","lat":33.81011279124419,"lng":-117.9181694984436,"distance":617,"postalCode":"92802","city":"Anaheim","state":"CA"},"categories":[{"id":"4bf58dd8d48988d124941735","name":"Office","pluralName":"Offices","shortName":"Corporate \/ Office","icon":"https:\/\/foursquare.com\/img\/categories\/building\/default.png","parents":["Professional & Other Places"],"primary":true}],"verified":false,"stats":{"checkinsCount":620,"usersCount":38,"tipCount":2},"hereNow":{"count":0}},{"id":"4ecdffb593ad987b4a512f55","name":"Disneyland Christmas Tree","contact":{},"location":{"address":"Christmas Tree Point, Town Square","crossStreet":"at Disneyland","lat":33.810375,"lng":-117.919003,"distance":631,"postalCode":"92802","city":"Anaheim","state":"CA"},"categories":[{"id":"4bf58dd8d48988d15a941735","name":"Garden","pluralName":"Gardens","shortName":"Garden","icon":"https:\/\/foursquare.com\/img\/categories\/parks_outdoors\/garden.png","parents":["Great Outdoors"],"primary":true}],"verified":false,"stats":{"checkinsCount":691,"usersCount":550,"tipCount":3},"hereNow":{"count":0}},{"id":"4e872f435503feb99a98ef80","name":"Disneyland Audio Central","contact":{},"location":{"address":"1313 Harbor Blvd","crossStreet":"Backstage @ Disneyland","lat":33.810090505134866,"lng":-117.91848868131638,"distance":633,"postalCode":"92802","city":"Anaheim","state":"CA"},"categories":[{"id":"4bf58dd8d48988d182941735","name":"Theme Park","pluralName":"Theme Parks","shortName":"Theme Park","icon":"https:\/\/foursquare.com\/img\/categories\/arts_entertainment\/themepark.png","parents":["Arts & Entertainment"],"primary":true}],"verified":false,"stats":{"checkinsCount":10,"usersCount":5,"tipCount":0},"hereNow":{"count":0}},{"id":"4b40d235f964a52095bb25e3","name":"Disneyland Fire Department No. 1","contact":{"phone":"7147814565","formattedPhone":"(714) 781-4565","twitter":"Disneyland"},"location":{"address":"105 Main Street, U.S.A.","crossStreet":"at Disneyland","lat":33.810442624983395,"lng":-117.91936039924622,"distance":644,"postalCode":"92802","city":"Anaheim","state":"CA"},"categories":[{"id":"4bf58dd8d48988d12c941735","name":"Fire Station","pluralName":"Fire Stations","shortName":"Fire Station","icon":"https:\/\/foursquare.com\/img\/categories\/building\/government_firestation.png","parents":["Professional & Other Places","Government Buildings"],"primary":true}],"verified":false,"stats":{"checkinsCount":809,"usersCount":538,"tipCount":3},"hereNow":{"count":0}},{"id":"4edabef86da1642c5d2f44f1","name":"Disneyland 2011 Candlelight Ceremony","contact":{},"location":{"address":"1313 S. Harbor Blvd.","crossStreet":"Main Street @ Disneyland","lat":33.810287023031094,"lng":-117.91909955413584,"distance":644,"postalCode":"92802","city":"Anaheim","state":"CA"},"categories":[{"id":"4bf58dd8d48988d137941735","name":"Theater","pluralName":"Theaters","shortName":"Theater","icon":"https:\/\/foursquare.com\/img\/categories\/arts_entertainment\/default.png","parents":["Arts & Entertainment","Performing Arts Venues"],"primary":true}],"verified":false,"stats":{"checkinsCount":30,"usersCount":25,"tipCount":0},"hereNow":{"count":0}},{"id":"4b7a3206f964a5200c262fe3","name":"Disneyland Kennel Club","contact":{"twitter":"Disneyland"},"location":{"address":"1313 S. Harbor Blvd.","crossStreet":"Esplanade @ Disneyland Resort","lat":33.80975844141831,"lng":-117.91830629110336,"distance":658,"postalCode":"92802","city":"Anaheim","state":"CA"},"categories":[{"id":"4bf58dd8d48988d1f6931735","name":"General Travel","pluralName":"General Travel","shortName":"Other - Travel","icon":"https:\/\/foursquare.com\/img\/categories\/travel\/default.png","parents":["Travel & Transport"],"primary":true}],"verified":false,"stats":{"checkinsCount":282,"usersCount":104,"tipCount":3},"hereNow":{"count":0}},{"id":"4dc4b88ab0fb5556ccdf5175","name":"Disneyland Jail","contact":{},"location":{"lat":33.81028216548533,"lng":-117.9194650053978,"distance":664,"postalCode":"92802","city":"Anaheim","state":"CA","country":"USA"},"categories":[{"id":"4bf58dd8d48988d182941735","name":"Theme Park","pluralName":"Theme Parks","shortName":"Theme Park","icon":"https:\/\/foursquare.com\/img\/categories\/arts_entertainment\/themepark.png","parents":["Arts & Entertainment"],"primary":true}],"verified":false,"stats":{"checkinsCount":719,"usersCount":480,"tipCount":7},"hereNow":{"count":0}},{"id":"4ac95a59f964a520bdbf20e3","name":"Disneyland Railroad Main Street Station","contact":{"twitter":"Disneyland"},"location":{"address":"Main St.","crossStreet":"at Disneyland","lat":33.809987988957225,"lng":-117.91895806789398,"distance":665,"postalCode":"92802","city":"Anaheim","state":"CA"},"categories":[{"id":"4bf58dd8d48988d129951735","name":"Train Station","pluralName":"Train Stations","shortName":"Train Station","icon":"https:\/\/foursquare.com\/img\/categories\/travel\/trainstation.png","parents":["Travel & Transport"],"primary":true}],"verified":false,"stats":{"checkinsCount":5592,"usersCount":3897,"tipCount":22},"url":"http:\/\/disneyland.com","hereNow":{"count":0}},{"id":"4ee30f4f9adf3982fe2842f7","name":"Crystal Arcade Womens Restroom (Disneyland)","contact":{},"location":{"lat":33.81085205078125,"lng":-117.919189453125,"distance":598,"postalCode":"92802","city":"Anaheim","state":"CA"},"categories":[{"id":"4bf58dd8d48988d182941735","name":"Theme Park","pluralName":"Theme Parks","shortName":"Theme Park","icon":"https:\/\/foursquare.com\/img\/categories\/arts_entertainment\/themepark.png","parents":["Arts & Entertainment"],"primary":true}],"verified":false,"stats":{"checkinsCount":2,"usersCount":2,"tipCount":0},"hereNow":{"count":0}},{"id":"4c067db4d3842d7f6cadbf41","name":"Disneyland Dream Suite","contact":{"twitter":"Disneyland"},"location":{"address":"21 Royal St. New Orleans Square","crossStreet":"at Disneyland","lat":33.81119366057774,"lng":-117.92082756757736,"distance":677,"postalCode":"92802","city":"Anaheim","state":"CA"},"categories":[{"id":"4bf58dd8d48988d1fa931735","name":"Hotel","pluralName":"Hotels","shortName":"Hotel","icon":"https:\/\/foursquare.com\/img\/categories\/travel\/hotel.png","parents":["Travel & Transport"],"primary":true}],"verified":false,"stats":{"checkinsCount":262,"usersCount":98,"tipCount":4},"hereNow":{"count":0}},{"id":"4db5fb3aa86e8d2707a2da13","name":"Disneyland Scenic Art Caricatures","contact":{},"location":{"lat":33.811436,"lng":-117.9211385685153,"distance":683,"city":"Anaheim","state":"CA"},"categories":[{"id":"4bf58dd8d48988d182941735","name":"Theme Park","pluralName":"Theme Parks","shortName":"Theme Park","icon":"https:\/\/foursquare.com\/img\/categories\/arts_entertainment\/themepark.png","parents":["Arts & Entertainment"],"primary":true}],"verified":false,"stats":{"checkinsCount":4,"usersCount":3,"tipCount":0},"hereNow":{"count":0}},{"id":"4ac95bf5f964a520c3bf20e3","name":"Disneyland Railroad New Orleans Station","contact":{"twitter":"Disneyland"},"location":{"address":"New Orleans Square, Disneyland","crossStreet":"at Disneyland Resort","lat":33.81138754703431,"lng":-117.92192459106445,"distance":746,"postalCode":"92802","city":"Anaheim","state":"CA"},"categories":[{"id":"4bf58dd8d48988d129951735","name":"Train Station","pluralName":"Train Stations","shortName":"Train Station","icon":"https:\/\/foursquare.com\/img\/categories\/travel\/trainstation.png","parents":["Travel & Transport"],"primary":true}],"verified":false,"stats":{"checkinsCount":3391,"usersCount":2419,"tipCount":9},"url":"http:\/\/disneyland.com","hereNow":{"count":3}},{"id":"4ee3e7234690f88940083e15","name":"Holiday Time At Disneyland Tour","contact":{},"location":{"lat":33.80965769577804,"lng":-117.91887758940767,"distance":693,"postalCode":"92802"},"categories":[{"id":"4bf58dd8d48988d182941735","name":"Theme Park","pluralName":"Theme Parks","shortName":"Theme Park","icon":"https:\/\/foursquare.com\/img\/categories\/arts_entertainment\/themepark.png","parents":["Arts & Entertainment"],"primary":true}],"verified":false,"stats":{"checkinsCount":5,"usersCount":5,"tipCount":0},"hereNow":{"count":0}},{"id":"4d85946199b78cfad9c3d21f","name":"Hyatt Shuttle Disneyland Pick Up","contact":{},"location":{"lat":33.80958525,"lng":-117.91885176666666,"distance":699},"categories":[{"id":"4bf58dd8d48988d1fe931735","name":"Bus Station","pluralName":"Bus Stations","shortName":"Bus Station","icon":"https:\/\/foursquare.com\/img\/categories\/travel\/busstation.png","parents":["Travel & Transport"],"primary":true}],"verified":false,"stats":{"checkinsCount":9,"usersCount":7,"tipCount":0},"hereNow":{"count":0}},{"id":"4c278009aa77ef3bd9f598b0","name":"Disney Photo Imaging Base","contact":{},"location":{"address":"Backstage, Main Street, U.S.A.","crossStreet":"at Disneyland","lat":33.8101751923194,"lng":-117.91814804077148,"distance":610,"postalCode":"92802","city":"Anaheim","state":"CA"},"categories":[{"id":"4bf58dd8d48988d174941735","name":"Coworking Space","pluralName":"Coworking Spaces","shortName":"Coworking Space","icon":"https:\/\/foursquare.com\/img\/categories\/building\/default.png","parents":["Professional & Other Places","Offices"],"primary":true}],"verified":false,"stats":{"checkinsCount":306,"usersCount":39,"tipCount":4},"hereNow":{"count":0}},{"id":"4ea305e730f8b9d5ac9a202c","name":"Kris Hightower's Office At Disneyland","contact":{},"location":{"lat":33.8094162940979,"lng":-117.91972517967224,"distance":757},"categories":[{"id":"4bf58dd8d48988d124941735","name":"Office","pluralName":"Offices","shortName":"Corporate \/ Office","icon":"https:\/\/foursquare.com\/img\/categories\/building\/default.png","parents":["Professional & Other Places"],"primary":true}],"verified":false,"stats":{"checkinsCount":1,"usersCount":1,"tipCount":0},"hereNow":{"count":0}},{"id":"4d2dc97ffd2e236a4c65f3de","name":"Ball Rd & Disneyland Dr\/Manchester Rd","contact":{},"location":{"lat":33.818242,"lng":-117.922454,"distance":758,"city":"Anaheim","state":"CA"},"categories":[{"id":"4bf58dd8d48988d1f9931735","name":"Highway or Road","pluralName":"Highways or Roads","shortName":"Highway \/ Road","icon":"https:\/\/foursquare.com\/img\/categories\/travel\/highway.png","parents":["Travel & Transport"],"primary":true}],"verified":false,"stats":{"checkinsCount":186,"usersCount":40,"tipCount":0},"hereNow":{"count":0}},{"id":"4edac58177c8274efda5a94a","name":"Ticket Booth #8 (Disneyland Resort)","contact":{},"location":{"lat":33.80925180179457,"lng":-117.91964534662925,"distance":768,"postalCode":"92802","city":"Anaheim","state":"CA"},"categories":[{"id":"4bf58dd8d48988d182941735","name":"Theme Park","pluralName":"Theme Parks","shortName":"Theme Park","icon":"https:\/\/foursquare.com\/img\/categories\/arts_entertainment\/themepark.png","parents":["Arts & Entertainment"],"primary":true}],"verified":false,"stats":{"checkinsCount":30,"usersCount":29,"tipCount":0},"hereNow":{"count":0}},{"id":"4e2e598caeb7e1b8af9a7c44","name":"Disneyland Drive and Magic Way","contact":{},"location":{"lat":33.813479,"lng":-117.92445123195648,"distance":875},"categories":[{"id":"4bf58dd8d48988d1f9931735","name":"Highway or Road","pluralName":"Highways or Roads","shortName":"Highway \/ Road","icon":"https:\/\/foursquare.com\/img\/categories\/travel\/highway.png","parents":["Travel & Transport"],"primary":true}],"verified":false,"stats":{"checkinsCount":105,"usersCount":65,"tipCount":0},"hereNow":{"count":0}},{"id":"4be4470c2468c9280d87fe42","name":"Disneyland Resort Central Bakery","contact":{"twitter":"Disneyland"},"location":{"address":"1313 S. Harbor Blvd.","crossStreet":"Backstage @ Disneyland","lat":33.816624543701664,"lng":-117.9256421327591,"distance":981,"postalCode":"92802","city":"Anaheim","state":"CA"},"categories":[{"id":"4bf58dd8d48988d16a941735","name":"Bakery","pluralName":"Bakeries","shortName":"Bakery","icon":"https:\/\/foursquare.com\/img\/categories\/food\/bakery.png","parents":["Food"],"primary":true}],"verified":false,"stats":{"checkinsCount":329,"usersCount":74,"tipCount":0},"hereNow":{"count":0}},{"id":"4b89a82af964a520a34932e3","name":"Disneyland Monorail Downtown Disney Station","contact":{"twitter":"Disneyland"},"location":{"address":"1580 Disneyland Dr","crossStreet":"at Downtown Disney","lat":33.80927037227415,"lng":-117.92456388473511,"distance":1081,"postalCode":"92802","city":"Anaheim","state":"CA"},"categories":[{"id":"4bf58dd8d48988d1fc931735","name":"Light Rail","pluralName":"Light Rails","shortName":"Light Rail","icon":"https:\/\/foursquare.com\/img\/categories\/travel\/lightrail.png","parents":["Travel & Transport"],"primary":true}],"verified":false,"stats":{"checkinsCount":3810,"usersCount":2540,"tipCount":9},"hereNow":{"count":3}},{"id":"4e346ad9c65b2313e282ba50","name":"Bus 43 from Disneyland","contact":{},"location":{"address":"1544 Harbor","crossStreet":"East Shuttle area","lat":33.80663284,"lng":-117.912323,"distance":977,"postalCode":"92805","city":"Anaheim","state":"CA"},"categories":[{"id":"4bf58dd8d48988d12b951735","name":"Bus Line","pluralName":"Bus Lines","shortName":"Bus","icon":"https:\/\/foursquare.com\/img\/categories\/travel\/busstation.png","parents":["Travel & Transport","Bus Stations"],"primary":true}],"verified":false,"stats":{"checkinsCount":7,"usersCount":6,"tipCount":1},"hereNow":{"count":0}},{"id":"4dbc1659f7b1ab37dd5478e0","name":"Bus #16 to Disneyland","contact":{},"location":{"lat":33.80696063345498,"lng":-117.91011360818186,"distance":1018,"city":"Anaheim","state":"CA"},"categories":[{"id":"4bf58dd8d48988d12b951735","name":"Bus Line","pluralName":"Bus Lines","shortName":"Bus","icon":"https:\/\/foursquare.com\/img\/categories\/travel\/busstation.png","parents":["Travel & Transport","Bus Stations"],"primary":true}],"verified":false,"stats":{"checkinsCount":31,"usersCount":18,"tipCount":0},"hereNow":{"count":0}},{"id":"4cf1eae27bf3b60c23fd627f","name":"I-5 Fwy at Disneyland Dr.","contact":{},"location":{"lat":33.821752,"lng":-117.92343844927589,"distance":1064,"city":"Anaheim","state":"CA"},"categories":[{"id":"4bf58dd8d48988d1f9931735","name":"Highway or Road","pluralName":"Highways or Roads","shortName":"Highway \/ Road","icon":"https:\/\/foursquare.com\/img\/categories\/travel\/highway.png","parents":["Travel & Transport"],"primary":true}],"verified":false,"stats":{"checkinsCount":194,"usersCount":84,"tipCount":0},"hereNow":{"count":0}},{"id":"4ede45f86da1642c613af0a8","name":"Disneyland Hotel Room 2345","contact":{},"location":{"lat":33.80891601408032,"lng":-117.92602600349866,"distance":1214,"postalCode":"92805","city":"Anaheim","state":"CA"},"categories":[{"id":"4bf58dd8d48988d12c951735","name":"Embassy or Consulate","pluralName":"Embassies or Consulates","shortName":"Embassy","icon":"https:\/\/foursquare.com\/img\/categories\/travel\/embassy.png","parents":["Travel & Transport"],"primary":true}],"verified":false,"stats":{"checkinsCount":4,"usersCount":1,"tipCount":0},"hereNow":{"count":0}},{"id":"45db8eb5f964a520fd421fe3","name":"Disney California Adventure","contact":{"phone":"7145203088","formattedPhone":"(714) 520-3088","twitter":"Disneyland"},"location":{"address":"1313 S Harbor Blvd","crossStreet":"at Disneyland Resort","lat":33.807536478553494,"lng":-117.91960716247559,"distance":933,"postalCode":"92802","city":"Anaheim","state":"CA","country":"USA"},"categories":[{"id":"4bf58dd8d48988d182941735","name":"Theme Park","pluralName":"Theme Parks","shortName":"Theme Park","icon":"https:\/\/foursquare.com\/img\/categories\/arts_entertainment\/themepark.png","parents":["Arts & Entertainment"],"primary":true}],"verified":false,"stats":{"checkinsCount":59519,"usersCount":26519,"tipCount":197},"url":"http:\/\/disneyland.com","hereNow":{"count":23}},{"id":"4e17c737d22d5122587d5665","name":"Disneyland Hotel Front Desk breakroom","contact":{},"location":{"address":"1150 W. Magic Way","lat":33.8092825,"lng":-117.92666,"distance":1241,"postalCode":"92802","city":"Anaheim","state":"California"},"categories":[{"id":"4bf58dd8d48988d114941735","name":"Food Court","pluralName":"Food Courts","shortName":"Food Court","icon":"https:\/\/foursquare.com\/img\/categories\/food\/foodcourt.png","parents":["Food"],"primary":true}],"verified":false,"stats":{"checkinsCount":234,"usersCount":30,"tipCount":2},"hereNow":{"count":1}},{"id":"4e7d789502d5fc42eb8d211d","name":"Castle Inn & Suites Harbor Bl Infront Of Disneyland","contact":{},"location":{"crossStreet":"Infront Of Disneyland","lat":33.805074,"lng":-117.914748,"distance":1114},"categories":[{"id":"4bf58dd8d48988d1fa931735","name":"Hotel","pluralName":"Hotels","shortName":"Hotel","icon":"https:\/\/foursquare.com\/img\/categories\/travel\/hotel.png","parents":["Travel & Transport"],"primary":true}],"verified":false,"stats":{"checkinsCount":4,"usersCount":4,"tipCount":0},"hereNow":{"count":0}},{"id":"4e2e0d49d22daa76ed88e4c3","name":"Disneyland Hotel Concierge","contact":{},"location":{"lat":33.80854,"lng":-117.926141,"distance":1247,"postalCode":"92802","city":"Anaheim","state":"CA"},"categories":[{"id":"4bf58dd8d48988d1fa931735","name":"Hotel","pluralName":"Hotels","shortName":"Hotel","icon":"https:\/\/foursquare.com\/img\/categories\/travel\/hotel.png","parents":["Travel & Transport"],"primary":true}],"verified":false,"stats":{"checkinsCount":22,"usersCount":12,"tipCount":0},"hereNow":{"count":0}},{"id":"4e2a607718387cce066777b9","name":"Disneyland Hotel Adventure Tower","contact":{"phone":"7147786600","formattedPhone":"(714) 778-6600"},"location":{"address":"1150 Magic Way.","crossStreet":"at Disneyland Hotel","lat":33.808401201150815,"lng":-117.9261839389801,"distance":1259,"postalCode":"92802","city":"Anaheim","state":"CA"},"categories":[{"id":"4bf58dd8d48988d1fa931735","name":"Hotel","pluralName":"Hotels","shortName":"Hotel","icon":"https:\/\/foursquare.com\/img\/categories\/travel\/hotel.png","parents":["Travel & Transport"],"primary":true}],"verified":false,"stats":{"checkinsCount":288,"usersCount":141,"tipCount":2},"hereNow":{"count":0}},{"id":"4e3ed5fea809ba757c1c9b2b","name":"Disneyland Hotel Fantasy Tower","contact":{"phone":"7147786600","formattedPhone":"(714) 778-6600"},"location":{"address":"1150 Magic Way.","crossStreet":"at Disneyland Hotel","lat":33.80909653875586,"lng":-117.926886677742,"distance":1270,"postalCode":"92802","city":"Anaheim","state":"CA"},"categories":[{"id":"4bf58dd8d48988d1fa931735","name":"Hotel","pluralName":"Hotels","shortName":"Hotel","icon":"https:\/\/foursquare.com\/img\/categories\/travel\/hotel.png","parents":["Travel & Transport"],"primary":true}],"verified":false,"stats":{"checkinsCount":239,"usersCount":99,"tipCount":2},"hereNow":{"count":0}},{"id":"47f69cabf964a520b44e1fe3","name":"Disneyland Hotel","contact":{"phone":"7147786600","formattedPhone":"(714) 778-6600","twitter":"Disneyland"},"location":{"address":"1150 Magic Way.","crossStreet":"btwn S. Walnut & Disneyland Dr.","lat":33.80896282042454,"lng":-117.92694568634033,"distance":1283,"postalCode":"92802","city":"Anaheim","state":"CA","country":"USA"},"categories":[{"id":"4bf58dd8d48988d1fa931735","name":"Hotel","pluralName":"Hotels","shortName":"Hotel","icon":"https:\/\/foursquare.com\/img\/categories\/travel\/hotel.png","parents":["Travel & Transport"],"primary":true}],"verified":false,"stats":{"checkinsCount":6988,"usersCount":3246,"tipCount":45},"hereNow":{"count":0}},{"id":"4e29150dfa762797e5a437fe","name":"Disneyland Hotel Frontier Tower","contact":{"phone":"7147786600","formattedPhone":"(714) 778-6600"},"location":{"address":"1150 Magic Way.","crossStreet":"at Disneyland Hotel","lat":33.807717,"lng":-117.92671,"distance":1344,"postalCode":"92802","city":"Anaheim","state":"CA"},"categories":[{"id":"4bf58dd8d48988d1fa931735","name":"Hotel","pluralName":"Hotels","shortName":"Hotel","icon":"https:\/\/foursquare.com\/img\/categories\/travel\/hotel.png","parents":["Travel & Transport"],"primary":true}],"verified":false,"stats":{"checkinsCount":445,"usersCount":194,"tipCount":2},"hereNow":{"count":2}},{"id":"4c0467cb3f03b71357235241","name":"Disneyland Hotel Pool","contact":{},"location":{"address":"1150 Magic Way.","crossStreet":"at Disneyland Hotel","lat":33.807964383611484,"lng":-117.92705297470093,"distance":1353,"postalCode":"92802","city":"Anaheim","state":"CA"},"categories":[{"id":"4bf58dd8d48988d132951735","name":"Pool","pluralName":"Pools","shortName":"Pool","icon":"https:\/\/foursquare.com\/img\/categories\/travel\/hotel_pool.png","parents":["Travel & Transport","Hotels"],"primary":true}],"verified":false,"stats":{"checkinsCount":263,"usersCount":168,"tipCount":8},"hereNow":{"count":0}},{"id":"4e518b761495fc2ca41cb688","name":"Mickey Mouse Suite at Disneyland Hotel","contact":{},"location":{"lat":33.808539,"lng":-117.925919,"distance":1230,"city":"Anaheim","state":"CA"},"categories":[{"id":"4bf58dd8d48988d1fa931735","name":"Hotel","pluralName":"Hotels","shortName":"Hotel","icon":"https:\/\/foursquare.com\/img\/categories\/travel\/hotel.png","parents":["Travel & Transport"],"primary":true}],"verified":false,"stats":{"checkinsCount":20,"usersCount":6,"tipCount":0},"hereNow":{"count":0}},{"id":"4dc8465eb0fb860f173c27fb","name":"Disneyland Fire Department - Station 2","contact":{},"location":{"address":"1313 S. Harbor Blvd","crossStreet":"Backstage @ Disney California Adventure","lat":33.80441627281471,"lng":-117.92263269424438,"distance":1372,"postalCode":"92802","city":"Anaheim","state":"CA"},"categories":[{"id":"4bf58dd8d48988d12c941735","name":"Fire Station","pluralName":"Fire Stations","shortName":"Fire Station","icon":"https:\/\/foursquare.com\/img\/categories\/building\/government_firestation.png","parents":["Professional & Other Places","Government Buildings"],"primary":true}],"verified":false,"stats":{"checkinsCount":14,"usersCount":8,"tipCount":0},"hereNow":{"count":0}},{"id":"4e235e6845dd950bb0392cdb","name":"Disneyland Hotel Costuming","contact":{},"location":{"address":"Backstage, Frontear Tower","crossStreet":"at Disneyland Hotel","lat":33.807351,"lng":-117.927055,"distance":1394,"postalCode":"92802","city":"Anaheim","state":"CA"},"categories":[{"id":"4bf58dd8d48988d103951735","name":"Clothing Store","pluralName":"Clothing Stores","shortName":"Apparel","icon":"https:\/\/foursquare.com\/img\/categories\/shops\/apparel.png","parents":["Shops & Services"],"primary":true}],"verified":false,"stats":{"checkinsCount":74,"usersCount":9,"tipCount":0},"hereNow":{"count":0}},{"id":"4ecd20ab30f84584a0624893","name":"Anaheim Disneyland Resort Estate","contact":{},"location":{"isFuzzed":true,"lat":33.8115713501234,"lng":-117.93075839658111,"distance":1492,"city":"Anaheim","state":"California"},"categories":[{"id":"4bf58dd8d48988d103941735","name":"Home","pluralName":"Homes","shortName":"Home","icon":"https:\/\/foursquare.com\/img\/categories\/building\/home.png","parents":["Residences"],"primary":true}],"verified":false,"stats":{"checkinsCount":3,"usersCount":1,"tipCount":0},"hereNow":{"count":0}}]}]}}